%  UTC                 , latitude(deg),longitude(deg), height(m),  Q, ns,  sdn(m),  sde(m),  sdu(m), sdne(m), sdeu(m), sdun(m),age(s), ratio
2024-03-31 12:17:02.057,36.23748155,128.5597624,121.2156,1,9,0.0461,0.0213,0.2215,-0.0292,0.0639,-0.0979,6.18,3
2024-03-31 12:17:02.137,36.23745781,128.5597793,118.864,1,9,0.3616,0.2463,0.8453,0.2981,-0.4547,-0.5521,6.38,6.7
2024-03-31 12:17:02.155,36.23744865,128.5596529,120.9118,2,8,0.4219,0.2052,0.7107,-0.1792,-0.3053,0.2734,6.58,2.9
2024-03-31 12:17:02.218,36.23743963,128.559733,115.4456,2,9,0.4339,0.3139,0.7475,-0.0852,-0.3858,0.2232,6.78,78.5
2024-03-31 12:17:02.256,36.23727303,128.5596669,100.8667,1,8,0.0991,0.1816,0.2834,0.1094,-0.1144,0.0775,-23.02,7
2024-03-31 12:17:02.296,36.23732502,128.5596408,115.6302,2,8,0.3685,0.1625,0.6546,-0.1059,-0.2535,0.1157,7.18,1.1
2024-03-31 12:17:02.356,36.23743147,128.5598068,112.89,2,6,0.1335,0.1238,0.269,-0.0931,0.1352,-0.1761,7.38,1
2024-03-31 12:17:02.396,36.23743312,128.5598084,112.6544,2,4,0.3641,0.4726,0.3789,0.4014,-0.3917,-0.3607,-22.42,1
2024-03-31 12:17:02.435,36.23746582,128.559797,116.9553,5,3,0.537,0.4613,0.8455,-0.2622,-0.572,0.5456,7.78,0
2024-03-31 12:17:02.497,36.23742982,128.5598039,113.0149,2,4,0.3648,0.4726,0.3807,0.4012,-0.3915,-0.3619,-22.02,1
2024-03-31 12:17:02.558,36.2374735,128.5597795,119.8652,5,3,0.5368,0.4612,0.845,-0.262,-0.5718,0.5454,8.18,0
2024-03-31 12:17:02.596,36.23743361,128.5597956,114.621,2,9,0.1297,0.3705,0.5699,-0.1272,-0.4344,0.1514,8.38,1.2
2024-03-31 12:17:02.636,36.23744052,128.5597903,116.5707,1,4,0.6394,0.647,1.0794,-0.3238,-0.7886,0.6774,8.58,6
2024-03-31 12:17:02.697,36.23743308,128.5598104,112.6878,2,4,0.3671,0.4727,0.3865,0.4007,-0.3907,-0.3657,-21.22,1
2024-03-31 12:17:02.736,36.23743561,128.5597834,116.454,2,8,0.1386,0.32,0.5148,-0.1161,-0.3773,0.1444,8.98,1
2024-03-31 12:17:02.798,36.2374353,128.5597906,115.7064,2,8,0.1355,0.2785,0.4623,-0.0985,-0.3269,0.123,9.18,1.1
2024-03-31 12:17:02.837,36.23743526,128.5597929,115.4928,2,8,0.1332,0.2505,0.4279,-0.0866,-0.2929,0.108,9.38,1.1
2024-03-31 12:17:02.877,36.23743298,128.5598097,112.6452,2,4,0.3694,0.4727,0.3934,0.4002,-0.3899,-0.3698,-20.42,1
2024-03-31 12:17:02.937,36.23743069,128.5598073,113.0369,2,9,0.086,0.1136,0.1564,0.016,0.0416,-0.0918,9.78,1.1
2024-03-31 12:17:02.977,36.23743226,128.5598105,112.9171,2,4,0.2672,0.3348,0.2955,0.2812,-0.2752,-0.268,9.98,1.3
2024-03-31 12:17:03.019,36.23746636,128.5597847,119.2985,5,3,0.5363,0.4608,0.845,-0.2611,-0.5712,0.5439,10.18,0
2024-03-31 12:17:03.076,36.23744533,128.5598044,115.9801,1,4,0.3484,0.4711,0.3326,0.4048,-0.3946,-0.3393,10.38,5.1
2024-03-31 12:17:03.116,36.23743286,128.5598124,112.9063,2,4,0.2672,0.3348,0.295,0.2812,-0.2752,-0.268,10.58,2.2
2024-03-31 12:17:03.178,36.23745983,128.5597978,116.6523,2,4,0.7525,0.2947,0.9242,-0.4362,-0.4608,0.813,-19.22,1
2024-03-31 12:17:03.235,36.23743025,128.5598083,113.2012,2,9,0.0898,0.0813,0.1716,-0.0473,0.0605,-0.1043,10.98,1
2024-03-31 12:17:03.276,36.23743038,128.559808,113.1645,2,7,0.0963,0.0868,0.1864,-0.058,0.0775,-0.1159,11.18,1
2024-03-31 12:17:03.316,36.23741278,128.5598209,116.7089,2,4,0.7878,0.7238,0.5406,-0.7202,0.2245,-0.2596,11.38,2
2024-03-31 12:17:03.376,36.23743201,128.5598064,112.7891,2,4,0.1162,0.0967,0.2269,-0.0789,0.1083,-0.1477,11.58,2.8
2024-03-31 12:17:03.416,36.23746727,128.5598104,115.2465,5,2,0.7162,0.4824,1.4471,-0.3429,-0.4521,-0.4952,11.78,0
2024-03-31 12:17:03.458,36.23743622,128.5598088,112.1887,5,3,0.6185,0.387,1.0198,-0.1167,0.3021,-0.7848,11.98,0
2024-03-31 12:17:03.498,36.23740939,128.5598002,118.8722,5,3,0.7258,0.5317,1.1694,-0.433,-0.339,-0.7928,12.18,0
2024-03-31 12:17:03.557,36.23744311,128.5598246,111.6311,5,3,0.6756,0.3688,1.1057,-0.1241,0.2946,-0.8563,12.38,0
2024-03-31 12:17:03.618,36.23743035,128.5598078,113.1788,2,7,0.093,0.0864,0.1799,-0.0583,0.0789,-0.1106,12.58,1.4
2024-03-31 12:17:03.658,36.23742421,128.5598199,114.8016,5,3,0.6756,0.3688,1.1058,-0.124,0.2946,-0.8563,12.78,0
2024-03-31 12:17:03.695,36.23744254,128.5598247,111.7518,5,3,0.572,0.3517,0.9124,0.1571,0.1313,-0.7133,12.98,0
2024-03-31 12:17:03.756,36.23743555,128.5598156,112.6098,5,3,0.572,0.3517,0.9125,0.1571,0.1313,-0.7133,13.18,0
2024-03-31 12:17:03.798,36.23743258,128.5598047,113.707,2,8,0.1201,0.1589,0.1841,-0.1243,-0.0462,-0.0416,13.38,1.2
2024-03-31 12:17:03.837,36.2374311,128.559808,113.6644,2,8,0.1197,0.1567,0.1835,-0.1232,-0.0395,-0.0453,13.58,1.1
2024-03-31 12:17:03.907,36.23743074,128.5598076,113.1246,2,9,0.0867,0.0845,0.1677,-0.0542,0.0738,-0.1007,13.78,1.7
2024-03-31 12:17:03.937,36.23742349,128.5598178,113.8177,2,7,0.3911,0.3947,0.1954,-0.3873,0.1592,-0.17,13.98,1.6
2024-03-31 12:17:03.997,36.2374333,128.5598102,112.825,5,3,0.5721,0.3516,0.9128,0.1571,0.1314,-0.7135,14.18,0
2024-03-31 12:17:04.036,36.23742481,128.5598165,113.8984,5,2,1.1861,0.4805,1.3778,-0.4389,-0.5655,0.4227,14.38,0
2024-03-31 12:17:04.097,36.23743074,128.5598078,113.1272,2,8,0.0866,0.0868,0.168,-0.0578,0.0795,-0.1011,14.58,2
2024-03-31 12:17:04.138,36.2374329,128.5598057,113.6855,2,7,0.391,0.3946,0.1908,-0.3874,0.1605,-0.1684,14.78,1.3
2024-03-31 12:17:04.198,36.23744524,128.5597812,117.0158,5,2,1.186,0.4805,1.3778,-0.4388,-0.5654,0.4221,14.98,0
2024-03-31 12:17:04.236,36.23742339,128.5598182,113.8052,2,7,0.3908,0.3946,0.1885,-0.3875,0.161,-0.1679,15.18,1.1
2024-03-31 12:17:04.277,36.23742615,128.5598167,113.7462,5,2,2.3117,0.7524,1.3862,-1.1584,-0.6398,0.6974,15.38,0
2024-03-31 12:17:04.337,36.23743066,128.5598075,113.1415,2,7,0.0848,0.0877,0.1646,-0.0595,0.0822,-0.0985,15.58,1.1
2024-03-31 12:17:04.377,36.23742881,128.5598112,113.7383,2,6,0.5059,0.5108,0.1956,-0.5045,0.2152,-0.2183,15.78,1.1
2024-03-31 12:17:04.417,36.23744664,128.5598268,110.7119,2,4,0.8027,0.496,1.2791,0.2281,0.1796,-1.0023,-14.02,1
2024-03-31 12:17:04.482,36.23743716,128.5598015,112.7063,2,7,0.5491,0.5573,0.2254,-0.5489,0.2352,-0.2323,-13.82,1
2024-03-31 12:17:04.516,36.2374306,128.5598083,113.1356,2,7,0.083,0.0884,0.1615,-0.0603,0.084,-0.096,16.38,1
2024-03-31 12:17:04.578,36.23744596,128.5598236,111.0848,5,3,0.5722,0.3516,0.9134,0.1572,0.1317,-0.714,16.58,0
2024-03-31 12:17:04.618,36.23744578,128.559782,116.8537,5,2,1.1857,0.4804,1.3777,-0.4386,-0.5651,0.4203,16.78,0
2024-03-31 12:17:04.657,36.23743725,128.5598116,112.8578,5,2,1.1857,0.4929,1.5251,-0.4362,-0.4968,0.436,16.98,0
2024-03-31 12:17:04.716,36.2374311,128.5598073,113.1408,2,6,0.0818,0.0895,0.1597,-0.0619,0.0867,-0.0943,17.18,1.4
2024-03-31 12:17:04.760,36.23743046,128.5598096,113.3393,5,3,0.6337,0.4811,1.152,-0.3256,-0.4167,-0.7366,17.38,0
2024-03-31 12:17:04.816,36.23744876,128.5598201,110.6595,5,3,0.6193,0.387,1.0226,-0.1169,0.3028,-0.7866,17.58,0
2024-03-31 12:17:04.857,36.23743513,128.5598074,112.6557,5,3,0.5584,0.4589,1.101,-0.2503,-0.4721,-0.664,17.78,0
2024-03-31 12:17:04.916,36.23745327,128.5598154,109.757,5,3,0.5723,0.3516,0.9139,0.1572,0.1317,-0.7143,17.98,0
2024-03-31 12:17:04.957,36.2374238,128.5598201,113.3733,5,3,0.5584,0.4589,1.1011,-0.2503,-0.4721,-0.6641,18.18,0
2024-03-31 12:17:04.996,36.23743309,128.559815,113.4988,5,3,0.5723,0.3516,0.9141,0.1572,0.1317,-0.7143,18.38,0
2024-03-31 12:17:05.057,36.23742702,128.5598184,113.0677,5,3,0.5584,0.4588,1.1012,-0.2503,-0.4721,-0.6642,18.58,0
2024-03-31 12:17:05.098,36.23743392,128.5598052,113.0165,2,8,0.0776,0.0899,0.1535,-0.0614,0.0885,-0.0868,18.78,1.1
2024-03-31 12:17:05.137,36.23743434,128.5598057,113.0338,2,8,0.0772,0.0907,0.1529,-0.0618,0.0893,-0.0862,18.98,2.4
2024-03-31 12:17:05.198,36.23743544,128.5598038,112.8571,2,7,0.1528,0.321,0.3933,-0.2109,0.3458,-0.235,19.18,1.4
2024-03-31 12:17:05.257,36.23743202,128.5598152,114.0462,2,8,0.139,0.2899,0.3555,-0.1893,0.3108,-0.2112,19.38,1.1
2024-03-31 12:17:05.297,36.2374347,128.5598089,113.3829,2,8,0.076,0.1318,0.1679,-0.0767,0.1258,-0.0902,19.58,1.1
2024-03-31 12:17:05.335,36.23743492,128.5598102,113.4511,2,8,0.076,0.1314,0.1682,-0.0771,0.1263,-0.0904,19.78,1.9
2024-03-31 12:17:05.378,36.23743467,128.559812,113.5523,2,8,0.0863,0.125,0.1572,-0.0916,0.0705,-0.0441,19.98,1.1
2024-03-31 12:17:05.440,36.23743574,128.5598112,113.5122,2,8,0.0756,0.1305,0.169,-0.0776,0.1273,-0.0904,20.18,1.4
2024-03-31 12:17:05.497,36.2374359,128.5598129,113.6149,2,8,0.0756,0.1315,0.1698,-0.0786,0.1287,-0.0909,20.38,1.3
2024-03-31 12:17:05.537,36.23743744,128.5598098,112.8564,2,6,0.1556,0.2054,0.275,-0.129,0.2246,-0.0982,-9.42,1
2024-03-31 12:17:05.578,36.23743639,128.5598142,113.638,2,6,0.0762,0.1352,0.1735,-0.0817,0.1339,-0.0929,20.78,1.2
2024-03-31 12:17:05.636,36.23743676,128.5598152,113.657,2,5,0.0728,0.1303,0.171,-0.0857,0.138,-0.0888,20.98,1.4
2024-03-31 12:17:05.678,36.23743653,128.559816,113.7251,2,7,0.0763,0.1352,0.1746,-0.0828,0.1354,-0.0935,21.18,1.8
2024-03-31 12:17:05.739,36.23743639,128.5598174,113.8004,2,8,0.0769,0.1311,0.1776,-0.0856,0.1377,-0.0956,21.38,1.2
2024-03-31 12:17:05.779,36.23743726,128.559816,113.5971,2,8,0.1448,0.302,0.3709,-0.2008,0.3271,-0.2215,21.58,1.2
2024-03-31 12:17:05.818,36.2374329,128.5598136,115.8962,2,8,0.2498,0.4022,0.599,-0.2806,0.4444,-0.3558,21.78,1
2024-03-31 12:17:05.876,36.23743207,128.5598167,112.6197,5,3,0.6891,0.4627,1.3248,-0.3036,-0.5204,-0.3705,21.98,0
2024-03-31 12:17:05.917,36.23743366,128.5598062,114.6185,2,7,0.3235,0.4192,0.6867,-0.244,0.4888,-0.2551,22.18,1.3
2024-03-31 12:17:05.977,36.2374356,128.5598086,114.9263,2,8,0.2496,0.3976,0.5988,-0.281,0.4443,-0.3567,22.38,1.1
2024-03-31 12:17:06.019,36.23743303,128.5598149,115.57,2,8,0.2492,0.3949,0.5983,-0.2813,0.4439,-0.3571,22.58,1.1
2024-03-31 12:17:06.077,36.23743843,128.5598145,113.2251,2,9,0.135,0.2863,0.3481,-0.1887,0.3087,-0.206,22.78,1.1
2024-03-31 12:17:06.116,36.23744053,128.559809,112.5828,2,9,0.0479,0.0415,0.0652,0.0093,-0.0387,0.0267,22.98,1.4
2024-03-31 12:17:06.156,36.23744042,128.559809,112.5958,2,9,0.0476,0.0409,0.0647,0.0075,-0.0381,0.0273,23.18,1
2024-03-31 12:17:06.196,36.23743218,128.5598125,111.4589,2,8,0.5311,0.1754,0.643,-0.3004,-0.3326,0.5824,23.38,1.1
2024-03-31 12:17:06.257,36.23743405,128.559811,114.9945,1,8,0.0388,0.0241,0.0827,0.0025,-0.0221,-0.042,23.58,3.1
2024-03-31 12:17:06.297,36.2374354,128.5598115,111.8807,2,8,0.531,0.175,0.6427,-0.3004,-0.3322,0.5823,23.78,1.1
2024-03-31 12:17:06.356,36.23744047,128.5598095,112.5507,2,8,0.0496,0.0478,0.087,-0.0364,-0.057,0.0504,23.98,1.6
2024-03-31 12:17:06.417,36.2374404,128.5598096,112.553,2,8,0.0495,0.0471,0.0858,-0.0362,-0.056,0.0502,24.18,1.1
2024-03-31 12:17:06.436,36.23744067,128.5598094,112.5641,2,8,0.0464,0.0376,0.0619,-0.0101,-0.0347,0.0307,24.38,1.1
2024-03-31 12:17:06.498,36.23744066,128.5598097,112.5471,2,9,0.0427,0.0238,0.0607,-0.0239,-0.0277,0.0341,24.58,1.2
2024-03-31 12:17:06.538,36.23744027,128.5598099,112.5215,2,8,0.0461,0.0312,0.0739,-0.0287,-0.0398,0.0407,24.78,1.1
2024-03-31 12:17:06.595,36.23744058,128.5598098,112.5573,2,9,0.0437,0.0238,0.0645,-0.024,-0.028,0.031,24.98,1.3
2024-03-31 12:17:06.637,36.23744042,128.5598097,112.5924,2,9,0.0459,0.0241,0.0714,-0.0242,-0.0285,0.0237,25.18,3
2024-03-31 12:17:06.698,36.23744066,128.5598097,112.5768,2,9,0.046,0.0247,0.072,-0.0244,-0.0296,0.0243,25.38,1
2024-03-31 12:17:06.737,36.23744093,128.5598094,112.5584,2,7,0.071,0.0489,0.117,-0.0536,-0.0737,0.0863,25.58,1.8
2024-03-31 12:17:06.775,36.23744081,128.5598097,112.5227,2,8,0.0415,0.0251,0.06,-0.0215,-0.035,0.0409,25.78,1.7
2024-03-31 12:17:06.837,36.23744075,128.5598096,112.5264,2,9,0.0395,0.0289,0.064,-0.0225,-0.0394,0.0408,25.98,2
2024-03-31 12:17:06.878,36.23744061,128.5598097,112.5161,2,8,0.0418,0.0343,0.0714,-0.026,-0.046,0.0453,26.18,1.2
2024-03-31 12:17:06.937,36.23745154,128.5598054,113.9663,2,7,0.8633,0.2768,1.0403,-0.4874,-0.5359,0.9471,26.38,1.3
2024-03-31 12:17:06.978,36.23745129,128.5598054,113.9344,2,7,0.8632,0.2767,1.0402,-0.4874,-0.5359,0.9471,26.58,1.3
2024-03-31 12:17:07.020,36.23745078,128.5598057,113.867,2,7,0.8632,0.2767,1.0402,-0.4873,-0.5358,0.947,26.78,1
2024-03-31 12:17:07.076,36.2374527,128.5598049,114.1292,2,7,0.8632,0.2766,1.0401,-0.4873,-0.5357,0.947,26.98,2.2
2024-03-31 12:17:07.116,36.23744041,128.55981,112.4587,2,8,0.042,0.0321,0.0689,-0.0261,-0.0436,0.0457,27.18,1.1
2024-03-31 12:17:07.178,36.23744043,128.5598099,112.4674,2,9,0.0397,0.0225,0.0534,-0.0175,-0.0299,0.0378,27.38,1.1
2024-03-31 12:17:07.217,36.23744069,128.5598099,112.4891,2,8,0.0424,0.0257,0.0548,-0.0139,-0.0318,0.0381,27.58,1.2
2024-03-31 12:17:07.277,36.23744069,128.5598099,112.4834,2,8,0.0423,0.0254,0.0546,-0.0143,-0.0315,0.0383,27.78,1
2024-03-31 12:17:07.322,36.23744047,128.5598099,112.4687,2,9,0.0402,0.0251,0.0536,-0.0146,-0.0313,0.0367,27.98,1.4
2024-03-31 12:17:07.357,36.2374407,128.5598099,112.4842,2,8,0.0416,0.0247,0.0537,-0.0145,-0.0308,0.0378,28.18,1.1
2024-03-31 12:17:07.397,36.23744063,128.5598099,112.4745,2,8,0.0415,0.0244,0.0535,-0.0149,-0.0306,0.038,28.38,1.4
2024-03-31 12:17:07.456,36.23743942,128.5598078,112.6183,2,8,0.0838,0.1047,0.0907,0.0849,-0.0917,-0.0624,28.58,1.5
2024-03-31 12:17:07.519,36.23743298,128.5598131,114.2587,2,8,0.2857,0.2256,0.5257,-0.2194,-0.3134,0.3352,28.78,1.1
2024-03-31 12:17:07.556,36.23744012,128.5598091,112.53,2,9,0.0789,0.098,0.087,0.0785,-0.0864,-0.0564,28.98,1.4
2024-03-31 12:17:07.597,36.23743951,128.5598081,112.6041,2,9,0.0752,0.0926,0.084,0.0735,-0.0821,-0.0515,29.18,1.4
2024-03-31 12:17:07.637,36.23743236,128.5598126,114.3286,2,8,0.1453,0.1427,0.3025,-0.0831,-0.158,0.0954,29.38,1.3
2024-03-31 12:17:07.697,36.237448,128.5598073,113.4356,2,7,0.8628,0.2758,1.0391,-0.4869,-0.5348,0.9465,29.58,1.1
2024-03-31 12:17:07.738,36.23744071,128.5598101,112.4675,2,8,0.0412,0.0235,0.0528,-0.0157,-0.0298,0.0383,29.78,1.3
2024-03-31 12:17:07.796,36.23744011,128.5598092,112.5249,2,9,0.041,0.0197,0.0523,-0.0175,-0.0282,0.0386,29.98,1.1
2024-03-31 12:17:07.839,36.23743839,128.5598097,112.7126,2,8,0.0565,0.0441,0.0965,0.0194,-0.046,-0.0116,0.18,1
2024-03-31 12:17:07.897,36.2374384,128.5598096,112.6982,2,8,0.0562,0.0437,0.0959,0.019,-0.0456,-0.0104,0.38,1
2024-03-31 12:17:07.937,36.23743837,128.5598094,112.7262,2,9,0.0558,0.0434,0.0954,0.0185,-0.0454,-0.0096,0.58,1.2
2024-03-31 12:17:07.978,36.2374384,128.5598094,112.7366,2,9,0.0555,0.0431,0.0949,0.0182,-0.0451,-0.0086,0.78,1.2
2024-03-31 12:17:08.036,36.23743831,128.5598095,112.6954,2,8,0.0875,0.0719,0.1591,-0.06,-0.097,0.0928,0.98,1.1
2024-03-31 12:17:08.076,36.23743812,128.5598098,112.6551,2,8,0.0871,0.0716,0.1585,-0.0598,-0.0967,0.0926,1.18,1.2
2024-03-31 12:17:08.138,36.23743835,128.5598093,112.7228,2,8,0.0549,0.0422,0.0935,0.0174,-0.0446,-0.0047,1.38,1
2024-03-31 12:17:08.177,36.23743841,128.5598095,112.7019,2,8,0.0547,0.042,0.093,0.0171,-0.0444,-0.0028,1.58,1
2024-03-31 12:17:08.218,36.23743805,128.5598098,112.626,2,8,0.0853,0.0705,0.1561,-0.0588,-0.0954,0.0909,1.78,1.2
2024-03-31 12:17:08.277,36.23743854,128.5598095,112.681,2,9,0.0542,0.0414,0.0921,0.0165,-0.044,0.0048,1.98,1.1
2024-03-31 12:17:08.318,36.2374385,128.5598096,112.6781,2,8,0.054,0.0412,0.0916,0.0163,-0.0438,0.0062,2.18,1
2024-03-31 12:17:08.378,36.2374384,128.5598094,112.7064,2,9,0.0537,0.0409,0.0911,0.016,-0.0436,0.0072,2.38,1.6
2024-03-31 12:17:08.416,36.23743856,128.5598095,112.6838,2,9,0.0535,0.0406,0.0907,0.0157,-0.0434,0.0081,2.58,1.1
2024-03-31 12:17:08.458,36.23743846,128.5598094,112.7076,2,8,0.0831,0.0694,0.1538,-0.058,-0.0943,0.0895,2.78,1.2
2024-03-31 12:17:08.517,36.23743842,128.5598093,112.7163,2,9,0.0531,0.0401,0.0898,0.0151,-0.0431,0.0098,2.98,1
2024-03-31 12:17:08.556,36.23743844,128.5598093,112.7214,2,8,0.0529,0.0399,0.0893,0.015,-0.0429,0.0106,3.18,1
2024-03-31 12:17:08.617,36.23743852,128.5598092,112.7464,2,7,0.083,0.0694,0.1541,-0.0585,-0.0948,0.0904,3.38,1.1
2024-03-31 12:17:08.657,36.23743824,128.5598096,112.6478,2,7,0.0831,0.0695,0.1545,-0.0589,-0.0952,0.091,3.58,1.2
2024-03-31 12:17:08.716,36.2374384,128.5598092,112.7229,2,9,0.0523,0.0392,0.088,0.014,-0.0424,0.0126,3.78,1.2
2024-03-31 12:17:08.756,36.23743825,128.5598096,112.6468,2,7,0.083,0.0697,0.1551,-0.0594,-0.0958,0.0918,3.98,1.4
2024-03-31 12:17:08.799,36.23743819,128.5598093,112.6736,2,8,0.0722,0.0682,0.1332,-0.0454,-0.083,0.0716,4.18,1
2024-03-31 12:17:08.857,36.23743846,128.5598091,112.7011,2,9,0.0536,0.0431,0.0872,0.0212,-0.0399,0.018,4.38,1.1
2024-03-31 12:17:08.899,36.23743854,128.5598092,112.6881,2,8,0.0517,0.0383,0.0863,0.0132,-0.0418,0.0147,4.58,1.2
2024-03-31 12:17:08.958,36.23743857,128.5598092,112.6905,2,8,0.0515,0.038,0.0859,0.013,-0.0416,0.0151,4.78,1.1
2024-03-31 12:17:08.995,36.23743861,128.5598093,112.6839,2,8,0.0514,0.0378,0.0855,0.0128,-0.0414,0.0155,4.98,1.2
2024-03-31 12:17:09.058,36.23743867,128.5598093,112.6813,2,9,0.0511,0.0376,0.085,0.0124,-0.0413,0.0159,5.18,1.3
2024-03-31 12:17:09.098,36.23743872,128.5598094,112.6743,2,9,0.0509,0.0374,0.0846,0.0121,-0.0411,0.0163,5.38,1
2024-03-31 12:17:09.137,36.23743829,128.5598099,112.5685,2,8,0.0829,0.0711,0.1585,-0.0619,-0.0991,0.0952,5.58,1.1
2024-03-31 12:17:09.197,36.2374379,128.5598103,112.4955,2,8,0.0831,0.0714,0.1593,-0.0624,-0.0997,0.096,5.78,1.5
2024-03-31 12:17:09.238,36.2374385,128.5598095,112.6431,2,8,0.0833,0.0718,0.1602,-0.063,-0.1004,0.0969,5.98,2.3
2024-03-31 12:17:09.297,36.23743879,128.5598094,112.6649,2,9,0.0502,0.0365,0.0831,0.0108,-0.0405,0.0181,6.18,1
2024-03-31 12:17:09.337,36.23743871,128.5598092,112.6769,2,9,0.05,0.0363,0.0827,0.0105,-0.0404,0.0184,6.38,1.2
2024-03-31 12:17:09.378,36.23743831,128.55981,112.5555,2,8,0.0839,0.0728,0.1626,-0.0645,-0.1024,0.099,6.58,1.1
2024-03-31 12:17:09.438,36.23743875,128.5598092,112.6762,2,8,0.0498,0.0359,0.0819,0.01,-0.0401,0.0192,6.78,1.5
2024-03-31 12:17:09.476,36.2374382,128.5598101,112.5266,2,7,0.085,0.0737,0.1649,-0.066,-0.1041,0.1013,6.98,1.1
2024-03-31 12:17:09.518,36.23743881,128.5598092,112.6757,2,8,0.0495,0.0355,0.0811,0.0095,-0.0398,0.0199,7.18,1.5
2024-03-31 12:17:09.578,36.23743876,128.5598092,112.6763,2,9,0.0493,0.0353,0.0807,0.0091,-0.0396,0.0202,7.38,1.1
2024-03-31 12:17:09.636,36.23743878,128.5598091,112.6752,2,8,0.0492,0.0351,0.0803,0.0089,-0.0395,0.0206,7.58,1.2
2024-03-31 12:17:09.676,36.23743879,128.5598091,112.6831,2,8,0.0491,0.0348,0.0799,0.0086,-0.0393,0.0209,7.78,1.1
2024-03-31 12:17:09.717,36.2374391,128.5598092,112.6722,2,8,0.0526,0.0527,0.1125,-0.0327,-0.0687,0.0504,7.98,1
2024-03-31 12:17:09.758,36.23743901,128.5598094,112.6324,2,9,0.0472,0.0329,0.0783,-0.0078,-0.0375,0.0244,8.18,1.1
2024-03-31 12:17:09.817,36.2374389,128.5598093,112.6399,2,9,0.0482,0.034,0.0787,0.0053,-0.0387,0.0224,8.38,1.1
2024-03-31 12:17:09.877,36.2374389,128.559809,112.6852,2,7,0.0874,0.0769,0.1724,-0.0705,-0.11,0.108,8.58,1
2024-03-31 12:17:09.918,36.23743839,128.5598098,112.5398,2,7,0.0878,0.0774,0.1735,-0.0711,-0.1108,0.1089,8.78,1.1
2024-03-31 12:17:09.956,36.23743842,128.5598098,112.5237,2,7,0.0883,0.0778,0.1745,-0.0717,-0.1115,0.1099,8.98,1.1
2024-03-31 12:17:10.020,36.23743883,128.5598092,112.663,2,8,0.0881,0.078,0.1748,-0.0719,-0.1118,0.11,9.18,1
2024-03-31 12:17:10.058,36.23743892,128.5598092,112.6428,2,9,0.0479,0.0333,0.077,0.0052,-0.0382,0.0234,9.38,1.2
2024-03-31 12:17:10.097,36.237439,128.5598092,112.6412,2,9,0.0477,0.0331,0.0766,0.0046,-0.0381,0.0237,9.58,1
2024-03-31 12:17:10.156,36.23743897,128.5598092,112.6297,2,8,0.0477,0.0329,0.0763,0.0042,-0.038,0.024,9.78,1.1
2024-03-31 12:17:10.197,36.23743904,128.5598092,112.6295,2,8,0.0476,0.0327,0.0759,0.0036,-0.0378,0.0243,9.98,1.4
2024-03-31 12:17:10.257,36.23743902,128.5598091,112.6427,2,8,0.0474,0.0325,0.0755,0.0029,-0.0377,0.0245,10.18,1
2024-03-31 12:17:10.297,36.23743904,128.5598092,112.6271,2,5,0.0491,0.0371,0.0752,0.0155,-0.0368,0.0254,10.38,1.3
2024-03-31 12:17:10.359,36.23744918,128.5597924,115.4681,2,4,0.3331,0.4349,0.826,-0.3775,-0.5982,0.5212,10.58,1.4
2024-03-31 12:17:10.399,36.23743914,128.5598092,112.6189,2,9,0.047,0.032,0.0745,-0.0033,-0.0373,0.0253,10.78,1.3
2024-03-31 12:17:10.438,36.23743912,128.5598092,112.6174,2,9,0.0468,0.0318,0.0741,-0.004,-0.0372,0.0256,10.98,1
2024-03-31 12:17:10.498,36.23743904,128.5598091,112.6165,2,9,0.0479,0.0357,0.0738,0.0125,-0.0363,0.0266,11.18,1.5
2024-03-31 12:17:10.538,36.23743914,128.5598091,112.6305,2,8,0.0467,0.0314,0.0734,-0.0051,-0.0369,0.0262,11.38,1.1
2024-03-31 12:17:10.577,36.23743913,128.5598091,112.6399,2,8,0.0466,0.0312,0.0731,-0.0055,-0.0368,0.0264,11.58,1.1
2024-03-31 12:17:10.636,36.23743922,128.5598092,112.6189,2,9,0.0464,0.031,0.0727,-0.006,-0.0366,0.0266,11.78,1.2
2024-03-31 12:17:10.676,36.23743927,128.5598092,112.613,2,9,0.0463,0.0308,0.0724,-0.0065,-0.0365,0.0269,11.98,1.2
2024-03-31 12:17:10.737,36.23743966,128.5598088,112.7204,2,8,0.0922,0.0825,0.1857,-0.0784,-0.1201,0.1199,12.18,1.1
2024-03-31 12:17:10.778,36.23743924,128.5598091,112.6288,2,9,0.046,0.0305,0.0718,-0.0073,-0.0363,0.0274,12.38,1.5
2024-03-31 12:17:10.839,36.23743927,128.5598091,112.6508,2,8,0.0925,0.0829,0.1865,-0.079,-0.1208,0.1208,12.58,1.1
2024-03-31 12:17:10.879,36.2374392,128.5598091,112.6282,2,9,0.0458,0.0301,0.0711,-0.008,-0.036,0.0279,12.78,1.2
2024-03-31 12:17:10.916,36.23743927,128.5598092,112.6056,2,9,0.0457,0.0299,0.0708,-0.0083,-0.0359,0.0282,12.98,1.2
2024-03-31 12:17:10.978,36.2374388,128.5598099,112.4816,2,8,0.093,0.0832,0.1875,-0.0797,-0.1215,0.122,13.18,1.5
2024-03-31 12:17:11.019,36.23743936,128.5598092,112.6079,2,8,0.0456,0.0295,0.0701,-0.0089,-0.0356,0.0287,13.38,1.1
2024-03-31 12:17:11.057,36.23743939,128.5598091,112.6159,2,9,0.0454,0.0294,0.0698,-0.0092,-0.0355,0.0289,13.58,1.2
2024-03-31 12:17:11.116,36.23743941,128.5598092,112.6169,2,9,0.0453,0.0292,0.0695,-0.0095,-0.0354,0.0292,13.78,1.3
2024-03-31 12:17:11.156,36.23743936,128.5598091,112.6187,2,8,0.0453,0.029,0.0692,-0.0097,-0.0352,0.0294,13.98,1.1
2024-03-31 12:17:11.217,36.23743941,128.5598092,112.6013,2,8,0.0452,0.0288,0.0688,-0.01,-0.0351,0.0297,14.18,2.3
2024-03-31 12:17:11.258,36.23743956,128.5598093,112.601,2,5,0.0446,0.0275,0.0678,-0.0127,-0.0337,0.0315,14.38,2.9
2024-03-31 12:17:11.316,36.23743943,128.5598092,112.5989,2,9,0.0449,0.0285,0.0682,-0.0105,-0.0349,0.0301,14.58,1
2024-03-31 12:17:11.357,36.23743484,128.5598079,113.1494,1,9,0.0184,0.0153,0.0447,0.0074,-0.0163,-0.0164,14.78,4.5
2024-03-31 12:17:11.396,36.23743889,128.5598102,112.4362,2,8,0.0934,0.083,0.1875,-0.0805,-0.1218,0.1235,14.98,1.1
2024-03-31 12:17:11.457,36.23743937,128.5598098,112.5271,2,8,0.0934,0.0828,0.1873,-0.0805,-0.1216,0.1235,15.18,1
2024-03-31 12:17:11.498,36.23743943,128.5598097,112.5297,2,8,0.0933,0.0826,0.1869,-0.0804,-0.1214,0.1234,15.38,1.7
2024-03-31 12:17:11.536,36.23743964,128.5598093,112.5891,2,9,0.0445,0.0276,0.0667,-0.0118,-0.0342,0.0313,15.58,1.1
2024-03-31 12:17:11.597,36.23743964,128.5598093,112.5944,2,9,0.0444,0.0274,0.0664,-0.012,-0.0341,0.0316,15.78,1.3
2024-03-31 12:17:11.637,36.2374396,128.5598093,112.5946,2,9,0.0444,0.0272,0.0661,-0.0122,-0.034,0.0318,15.98,1.4
2024-03-31 12:17:11.697,36.23744039,128.5598087,112.7494,2,8,0.0928,0.0816,0.1851,-0.0799,-0.1202,0.1229,16.18,1.4
2024-03-31 12:17:11.738,36.23743946,128.5598098,112.5132,2,7,0.0933,0.0817,0.1856,-0.0803,-0.1205,0.1236,16.38,1.8
2024-03-31 12:17:11.797,36.23743969,128.5598093,112.5927,2,8,0.0442,0.0266,0.0653,-0.0128,-0.0336,0.0325,16.58,1.1
2024-03-31 12:17:11.838,36.2374397,128.5598093,112.5987,2,8,0.0441,0.0265,0.065,-0.013,-0.0335,0.0327,16.78,1.2
2024-03-31 12:17:11.876,36.23743973,128.5598094,112.5789,2,8,0.0441,0.0263,0.0647,-0.0132,-0.0334,0.0329,16.98,2.2
2024-03-31 12:17:11.938,36.23743468,128.5598077,113.1719,1,5,0.0371,0.0378,0.0606,0.0309,-0.0302,-0.0301,17.18,5.1
2024-03-31 12:17:11.978,36.23744016,128.559809,112.6728,2,7,0.0922,0.0798,0.1817,-0.0789,-0.1179,0.1218,17.38,1.1
2024-03-31 12:17:12.017,36.23743991,128.5598094,112.5732,2,9,0.0429,0.0243,0.063,-0.0163,-0.0316,0.0349,17.58,1.8
2024-03-31 12:17:12.076,36.23743492,128.5598078,113.1622,1,8,0.0267,0.0193,0.0538,0.0138,-0.0211,-0.0233,17.78,3.6
2024-03-31 12:17:12.117,36.23743986,128.5598095,112.5611,2,9,0.0429,0.0244,0.0627,-0.0161,-0.0318,0.0349,17.98,1.9
2024-03-31 12:17:12.158,36.2374398,128.5598094,112.576,2,8,0.0495,0.0436,0.0966,-0.033,-0.0605,0.0546,18.18,1
2024-03-31 12:17:12.218,36.23743973,128.5598094,112.5771,2,9,0.0433,0.025,0.0628,-0.0148,-0.0326,0.0344,18.38,2.7
2024-03-31 12:17:12.258,36.23743992,128.5598094,112.5866,2,8,0.0436,0.025,0.0626,-0.0146,-0.0325,0.0346,18.58,1.3
2024-03-31 12:17:12.300,36.23743992,128.5598094,112.5715,2,8,0.0436,0.0248,0.0623,-0.0148,-0.0324,0.0348,18.78,1.3
2024-03-31 12:17:12.355,36.23743968,128.5598091,112.5834,2,9,0.044,0.0284,0.0621,-0.0105,-0.0329,0.0346,18.98,2.4
2024-03-31 12:17:12.396,36.23743998,128.5598094,112.5882,2,8,0.0435,0.0245,0.0618,-0.0151,-0.0322,0.0352,19.18,1.8
2024-03-31 12:17:12.457,36.23743969,128.559809,112.5878,2,9,0.0438,0.0281,0.0617,-0.0111,-0.0328,0.035,19.38,1.1
2024-03-31 12:17:12.497,36.23744004,128.5598094,112.5813,2,8,0.0434,0.0242,0.0614,-0.0154,-0.0319,0.0357,19.58,1.2
2024-03-31 12:17:12.556,36.23744008,128.5598094,112.5832,2,9,0.0433,0.024,0.0611,-0.0156,-0.0319,0.0358,19.78,1
2024-03-31 12:17:12.597,36.23744009,128.5598094,112.5815,2,9,0.0433,0.0239,0.0609,-0.0157,-0.0318,0.036,19.98,2.9
2024-03-31 12:17:12.657,36.2374401,128.5598094,112.5851,2,8,0.0433,0.0238,0.0607,-0.0158,-0.0317,0.0362,20.18,1.7
2024-03-31 12:17:12.697,36.23744068,128.5598091,112.6754,2,7,0.0868,0.0705,0.1631,-0.0717,-0.105,0.1124,20.38,1.1
2024-03-31 12:17:12.736,36.2374306,128.5598141,112.0719,1,4,0.4668,0.6145,1.1661,-0.5324,-0.8453,0.7346,20.58,3.5
2024-03-31 12:17:12.798,36.23744015,128.5598095,112.5678,2,9,0.0432,0.0234,0.0601,-0.0162,-0.0315,0.0368,20.78,1.3
2024-03-31 12:17:12.835,36.23745895,128.5597676,119.9973,1,4,0.3368,0.4431,0.8398,-0.3818,-0.6083,0.5273,20.98,3.6
2024-03-31 12:17:12.898,36.23745801,128.5597692,119.7395,1,4,0.3368,0.4431,0.8398,-0.3818,-0.6083,0.5273,21.18,3.8
2024-03-31 12:17:12.938,36.2374514,128.5597804,117.8447,1,4,0.345,0.4528,0.8588,-0.3907,-0.6219,0.5398,21.38,6.1
2024-03-31 12:17:12.996,36.23743464,128.5598075,113.1946,1,5,0.0454,0.0464,0.0743,0.038,-0.0368,-0.0366,21.58,5.8
2024-03-31 12:17:13.037,36.2374482,128.5597855,116.9615,1,4,0.3369,0.4432,0.8399,-0.3816,-0.6083,0.5271,21.78,10
2024-03-31 12:17:13.077,36.23743895,128.5598101,112.3783,2,8,0.0463,0.0235,0.0626,-0.0197,-0.033,0.0423,21.98,1.5
2024-03-31 12:17:13.120,36.23745034,128.559782,117.5542,1,4,0.3451,0.4529,0.859,-0.3905,-0.6219,0.5396,22.18,24.5
2024-03-31 12:17:13.178,36.23743908,128.5598103,112.3506,2,9,0.0455,0.0213,0.0612,-0.0217,-0.0312,0.0437,22.38,1.1
2024-03-31 12:17:13.216,36.23743904,128.5598103,112.3382,2,9,0.0453,0.0214,0.0611,-0.0218,-0.0313,0.0437,22.58,1.1
2024-03-31 12:17:13.279,36.23743899,128.5598103,112.3391,2,9,0.0453,0.0217,0.0611,-0.0217,-0.0315,0.0438,22.78,1.1
2024-03-31 12:17:13.315,36.237439,128.5598103,112.3396,2,9,0.0453,0.0226,0.0611,-0.0215,-0.0319,0.0438,22.98,1.1
2024-03-31 12:17:13.356,36.23743897,128.5598102,112.3424,2,9,0.0456,0.0251,0.0612,-0.0203,-0.0326,0.0437,23.18,1.1
2024-03-31 12:17:13.419,36.23743897,128.5598102,112.3403,2,9,0.0456,0.0249,0.061,-0.0204,-0.0326,0.0438,23.38,1
2024-03-31 12:17:13.458,36.23743896,128.5598102,112.3375,2,9,0.0455,0.0248,0.0609,-0.0205,-0.0326,0.0439,23.58,1.1
2024-03-31 12:17:13.519,36.23743897,128.5598102,112.3391,2,9,0.0455,0.0246,0.0608,-0.0206,-0.0325,0.0441,23.78,1
2024-03-31 12:17:13.558,36.23743896,128.5598102,112.3437,2,9,0.0455,0.0245,0.0607,-0.0207,-0.0325,0.0442,23.98,1
2024-03-31 12:17:13.617,36.23743903,128.5598104,112.3247,2,9,0.0453,0.022,0.0604,-0.022,-0.0317,0.0445,24.18,1.1
2024-03-31 12:17:13.658,36.23743906,128.5598104,112.3255,2,9,0.0454,0.0219,0.0604,-0.0221,-0.0317,0.0447,24.38,1.1
2024-03-31 12:17:13.698,36.23743906,128.5598104,112.3288,2,9,0.0454,0.0219,0.0603,-0.0221,-0.0317,0.0449,24.58,1.1
2024-03-31 12:17:13.758,36.23743906,128.5598104,112.3255,2,9,0.0455,0.0219,0.0603,-0.0222,-0.0317,0.045,24.78,1.1
2024-03-31 12:17:13.796,36.2374391,128.5598104,112.3175,2,9,0.0456,0.0219,0.0603,-0.0222,-0.0318,0.0451,24.98,1
2024-03-31 12:17:13.858,36.23743911,128.5598104,112.3249,2,9,0.0456,0.0219,0.0603,-0.0222,-0.0318,0.0453,25.18,1
2024-03-31 12:17:13.898,36.2374391,128.5598104,112.326,2,9,0.0457,0.022,0.0603,-0.0222,-0.0319,0.0454,25.38,1.1
2024-03-31 12:17:13.937,36.23743913,128.5598103,112.335,2,9,0.0458,0.0221,0.0604,-0.0222,-0.0321,0.0455,25.58,1.6
2024-03-31 12:17:13.997,36.23743882,128.5598104,112.3049,2,8,0.054,0.0372,0.0846,-0.0327,-0.0523,0.0593,25.78,1.1
2024-03-31 12:17:14.037,36.23744614,128.5598079,113.2339,2,7,0.8586,0.2701,1.029,-0.4799,-0.5264,0.9393,25.98,1
2024-03-31 12:17:14.098,36.23743947,128.5598104,112.3461,2,8,0.0488,0.029,0.0628,-0.0156,-0.0366,0.0441,26.18,1
2024-03-31 12:17:14.137,36.23743912,128.5598103,112.3276,2,9,0.0461,0.0221,0.0603,-0.0224,-0.0322,0.046,26.38,1.2
2024-03-31 12:17:14.178,36.23743911,128.5598103,112.3308,2,9,0.0462,0.0227,0.0605,-0.0221,-0.0326,0.046,26.58,1
2024-03-31 12:17:14.237,36.23743911,128.5598103,112.3329,2,9,0.0465,0.0239,0.061,-0.0215,-0.0334,0.0459,26.78,1.1
2024-03-31 12:17:14.276,36.2374391,128.5598102,112.3396,2,9,0.0471,0.027,0.0622,-0.0195,-0.0356,0.0451,26.98,1.2
2024-03-31 12:17:14.317,36.23743855,128.5598088,112.4567,2,9,0.0554,0.0631,0.0801,0.0356,-0.0644,0.0243,27.18,1.3
2024-03-31 12:17:14.378,36.23743861,128.5598089,112.4548,2,9,0.0554,0.0632,0.0802,0.0357,-0.0646,0.0242,27.38,1.1
2024-03-31 12:17:14.415,36.23743866,128.5598089,112.4519,2,9,0.0554,0.0634,0.0803,0.0358,-0.0647,0.0242,27.58,1.1
2024-03-31 12:17:14.459,36.23743854,128.5598086,112.4837,2,9,0.0555,0.0636,0.0804,0.0359,-0.0649,0.0241,27.78,1.4
2024-03-31 12:17:14.518,36.23743603,128.5598093,112.8541,2,8,0.0815,0.158,0.2889,-0.0709,-0.2001,0.0847,27.98,1.1
2024-03-31 12:17:14.557,36.23745788,128.5598033,114.7954,2,8,0.5275,0.1668,0.6329,-0.2949,-0.324,0.5771,28.18,1
2024-03-31 12:17:14.617,36.23743959,128.5598104,112.3499,2,9,0.0485,0.0254,0.0614,-0.0201,-0.0341,0.0468,28.38,1.2
2024-03-31 12:17:14.658,36.23743959,128.5598104,112.3506,2,9,0.0485,0.0252,0.0614,-0.0204,-0.034,0.0471,28.58,1
2024-03-31 12:17:14.718,36.23743954,128.5598104,112.3504,2,9,0.0486,0.0251,0.0614,-0.0206,-0.0339,0.0473,28.78,1
2024-03-31 12:17:14.756,36.23743883,128.5598108,112.244,2,8,0.5274,0.1665,0.6326,-0.2948,-0.3238,0.577,28.98,1
2024-03-31 12:17:14.797,36.23743962,128.5598104,112.3551,2,9,0.0487,0.0248,0.0615,-0.021,-0.0338,0.0477,29.18,1
2024-03-31 12:17:14.837,36.23743962,128.5598104,112.3528,2,9,0.0489,0.0247,0.0616,-0.0212,-0.0338,0.0479,29.38,1
2024-03-31 12:17:14.898,36.23743967,128.5598105,112.351,2,9,0.049,0.0247,0.0617,-0.0213,-0.0338,0.0481,29.58,1.1
2024-03-31 12:17:14.937,36.23743969,128.5598105,112.353,2,9,0.0491,0.0247,0.0619,-0.0214,-0.0339,0.0483,29.78,1.1
2024-03-31 12:17:14.997,36.23743975,128.5598104,112.3719,2,8,0.0493,0.0247,0.0621,-0.0216,-0.0339,0.0485,29.98,1
2024-03-31 12:17:15.038,36.23743712,128.5598089,112.5084,2,9,0.0507,0.0422,0.0864,0.015,-0.0457,0.0086,0.18,1.1
2024-03-31 12:17:15.076,36.23744255,128.5598073,113.1781,2,8,0.5277,0.1707,0.6367,-0.2944,-0.3262,0.5757,0.38,1.3
2024-03-31 12:17:15.138,36.23743729,128.5598092,112.4919,2,9,0.0506,0.0421,0.086,0.0149,-0.0456,0.0098,0.58,1
2024-03-31 12:17:15.199,36.23743732,128.5598093,112.4821,2,9,0.0506,0.042,0.0858,0.0149,-0.0456,0.0103,0.78,1.1
2024-03-31 12:17:15.237,36.23743742,128.5598095,112.45,2,9,0.0494,0.0397,0.0845,0.0091,-0.0436,0.0158,0.98,1.5
2024-03-31 12:17:15.277,36.23743733,128.5598093,112.4833,2,9,0.0505,0.042,0.0855,0.0149,-0.0456,0.0111,1.18,1.3
2024-03-31 12:17:15.340,36.23744138,128.5598082,112.9597,2,8,0.5275,0.1705,0.6363,-0.2942,-0.326,0.5755,1.38,1.3
2024-03-31 12:17:15.378,36.23743745,128.5598096,112.438,2,9,0.0504,0.042,0.0851,0.0151,-0.0457,0.0117,1.58,1.1
2024-03-31 12:17:15.437,36.23744784,128.5598059,113.7901,2,8,0.5275,0.1705,0.6361,-0.2941,-0.326,0.5755,1.78,1.3
2024-03-31 12:17:15.477,36.23743753,128.5598096,112.452,2,9,0.0504,0.0421,0.0849,0.0154,-0.0459,0.0122,1.98,1.1
2024-03-31 12:17:15.521,36.23743754,128.5598097,112.443,2,9,0.0504,0.0421,0.0848,0.0155,-0.0459,0.0124,2.18,1
2024-03-31 12:17:15.579,36.23743762,128.5598099,112.4086,2,8,0.0505,0.0422,0.0846,0.0158,-0.046,0.0125,2.38,1.3
2024-03-31 12:17:15.617,36.23745492,128.5598031,114.7387,2,7,0.8584,0.2701,1.0275,-0.4778,-0.5247,0.9368,2.58,1.1
2024-03-31 12:17:15.679,36.23743698,128.5598104,112.3053,2,8,0.056,0.0467,0.0987,-0.0211,-0.0567,0.0401,2.78,1.6
2024-03-31 12:17:15.717,36.23743765,128.55981,112.4181,2,8,0.0506,0.0425,0.0843,0.0166,-0.0464,0.0125,2.98,1
2024-03-31 12:17:15.757,36.23743704,128.5598103,112.3438,2,8,0.056,0.0471,0.0991,-0.0213,-0.0574,0.0406,3.18,1.7
2024-03-31 12:17:15.819,36.23744791,128.5598064,113.7361,2,8,0.5272,0.1705,0.6357,-0.2938,-0.3259,0.5752,3.38,1
2024-03-31 12:17:15.858,36.23743779,128.5598101,112.411,2,9,0.0506,0.0429,0.084,0.0174,-0.0468,0.0124,3.58,1
2024-03-31 12:17:15.918,36.23743769,128.5598099,112.421,2,8,0.0508,0.043,0.0839,0.0179,-0.047,0.0123,3.78,1.1
2024-03-31 12:17:15.958,36.23743844,128.5598109,112.3505,2,9,0.0467,0.0399,0.0833,-0.0033,-0.0452,0.0203,3.98,1.3
2024-03-31 12:17:16.000,36.23743766,128.5598101,112.3935,2,8,0.0513,0.0434,0.0842,0.018,-0.0476,0.0142,4.18,2.1
2024-03-31 12:17:16.038,36.2374384,128.5598106,112.3734,2,9,0.0465,0.0405,0.084,-0.0045,-0.0463,0.0207,4.38,1.4
2024-03-31 12:17:16.098,36.2374385,128.5598105,112.4031,2,8,0.0486,0.0489,0.0987,-0.0211,-0.0598,0.0349,4.58,1.2
2024-03-31 12:17:16.139,36.23743847,128.5598108,112.3663,2,8,0.0486,0.0492,0.0991,-0.0213,-0.0604,0.0353,4.78,2.7
2024-03-31 12:17:16.199,36.23743847,128.5598109,112.3495,2,8,0.0486,0.0496,0.0996,-0.0216,-0.0609,0.0357,4.98,2
2024-03-31 12:17:16.240,36.23746392,128.5598004,115.8447,2,7,0.8579,0.2698,1.0263,-0.4769,-0.524,0.936,5.18,1.2
2024-03-31 12:17:16.299,36.23746654,128.5597998,116.1173,2,7,0.8579,0.2697,1.0263,-0.4769,-0.5239,0.936,5.38,1.3
2024-03-31 12:17:16.338,36.23743168,128.5598132,111.5046,2,7,0.8579,0.2697,1.0262,-0.4768,-0.5239,0.9359,5.58,1
2024-03-31 12:17:16.378,36.23746702,128.5597993,116.2344,2,7,0.8578,0.2697,1.0261,-0.4767,-0.5238,0.9359,5.78,1.6
2024-03-31 12:17:16.438,36.23743869,128.5598106,112.3998,2,9,0.048,0.0447,0.0912,-0.0167,-0.0538,0.0318,5.98,1
2024-03-31 12:17:16.479,36.23749039,128.5597908,119.2712,2,7,0.8578,0.2697,1.0259,-0.4766,-0.5237,0.9357,6.18,1.1
2024-03-31 12:17:16.518,36.23749017,128.559791,119.2265,2,7,0.8578,0.2697,1.0259,-0.4765,-0.5237,0.9357,6.38,1.5
2024-03-31 12:17:16.580,36.23743901,128.5598108,112.403,2,8,0.0578,0.0464,0.0885,0.0193,-0.0519,0.0284,6.58,1.3
2024-03-31 12:17:16.620,36.23749028,128.5597911,119.2183,2,7,0.8577,0.2697,1.0257,-0.4763,-0.5236,0.9355,6.78,1.2
2024-03-31 12:17:16.678,36.23743861,128.5598111,112.3212,2,8,0.0492,0.0536,0.105,-0.0243,-0.0669,0.0402,6.98,1
2024-03-31 12:17:16.717,36.23743866,128.5598108,112.3651,2,9,0.0478,0.0427,0.0869,-0.0122,-0.0507,0.0293,7.18,1.6
2024-03-31 12:17:16.758,36.23743836,128.5598115,112.2377,2,8,0.0499,0.0544,0.1062,-0.0249,-0.0681,0.0416,7.38,1
2024-03-31 12:17:16.819,36.23743841,128.5598114,112.2648,2,8,0.05,0.0549,0.1068,-0.0252,-0.0688,0.042,7.58,1.2
2024-03-31 12:17:16.878,36.23743839,128.5598116,112.2333,2,8,0.0501,0.0553,0.1074,-0.0255,-0.0694,0.0425,7.78,2
2024-03-31 12:17:16.918,36.23746563,128.5598006,115.9365,2,7,0.8575,0.2696,1.0252,-0.4759,-0.5233,0.9352,7.98,1.8
2024-03-31 12:17:16.958,36.23743907,128.5598112,112.3283,2,9,0.0563,0.0481,0.0865,0.0241,-0.0531,0.0211,8.18,1.2
2024-03-31 12:17:16.998,36.23743883,128.5598108,112.3755,2,9,0.0564,0.0484,0.0866,0.0245,-0.0534,0.0209,8.38,1.1
2024-03-31 12:17:17.063,36.2374391,128.5598112,112.324,2,9,0.0565,0.0486,0.0866,0.0248,-0.0536,0.0208,8.58,1.2
2024-03-31 12:17:17.100,36.23746755,128.5597999,116.1704,2,8,0.5266,0.172,0.6351,-0.2927,-0.3265,0.5743,8.78,1.2
2024-03-31 12:17:17.157,36.23743916,128.5598114,112.3142,2,9,0.0567,0.0491,0.0866,0.0255,-0.0541,0.0204,8.98,1.4
2024-03-31 12:17:17.220,36.23743644,128.5598124,111.9656,2,8,0.5265,0.1721,0.6351,-0.2926,-0.3266,0.5742,9.18,2.4
2024-03-31 12:17:17.276,36.23743912,128.5598113,112.3146,2,8,0.0571,0.0496,0.0866,0.0264,-0.0545,0.02,9.38,1
2024-03-31 12:17:17.307,36.23743927,128.5598117,112.2916,2,9,0.0588,0.0576,0.0878,0.0336,-0.0584,0.0135,9.58,2
2024-03-31 12:17:17.358,36.23743896,128.559811,112.3407,2,8,0.0572,0.05,0.0865,0.0271,-0.0549,0.0193,9.78,1.2
2024-03-31 12:17:17.397,36.23743903,128.559811,112.3473,2,8,0.0573,0.0502,0.0865,0.0274,-0.0551,0.0192,9.98,1.3
2024-03-31 12:17:17.459,36.23743939,128.5598118,112.284,2,9,0.0555,0.051,0.0845,0.0247,-0.0533,0.0251,10.18,1.6
2024-03-31 12:17:17.501,36.23743946,128.5598118,112.2696,2,9,0.0573,0.0505,0.0864,0.0278,-0.0555,0.0189,10.38,1.1
2024-03-31 12:17:17.539,36.2374385,128.5598119,112.1878,2,8,0.5263,0.1725,0.6349,-0.2923,-0.3268,0.574,10.58,2.1
2024-03-31 12:17:17.599,36.23743917,128.5598113,112.305,2,9,0.0575,0.0509,0.0864,0.0283,-0.0559,0.0188,10.78,1.2
2024-03-31 12:17:17.637,36.2374394,128.5598117,112.278,2,9,0.0576,0.051,0.0864,0.0285,-0.056,0.0188,10.98,1.1
2024-03-31 12:17:17.677,36.23743684,128.5598119,112.5836,1,9,0.0148,0.0121,0.0358,0.0056,-0.013,-0.0132,11.18,4.1
2024-03-31 12:17:17.740,36.23745895,128.5598039,114.9233,2,8,0.5262,0.1726,0.6348,-0.2922,-0.3268,0.5738,11.38,2.4
2024-03-31 12:17:17.779,36.2374394,128.5598116,112.2895,2,9,0.0579,0.0515,0.0863,0.0291,-0.0565,0.0189,11.58,2.6
2024-03-31 12:17:17.837,36.23743922,128.5598115,112.2931,2,9,0.058,0.0516,0.0863,0.0293,-0.0567,0.019,11.78,1.9
2024-03-31 12:17:17.878,36.23743927,128.5598115,112.2857,2,9,0.0581,0.0517,0.0863,0.0294,-0.0568,0.0192,11.98,1.4
2024-03-31 12:17:17.919,36.23743927,128.5598115,112.291,2,9,0.0582,0.0518,0.0862,0.0295,-0.0569,0.0193,12.18,1.2
2024-03-31 12:17:17.979,36.23744288,128.5598105,112.7161,2,8,0.5261,0.1727,0.6346,-0.292,-0.3268,0.5737,12.38,1.6
2024-03-31 12:17:18.038,36.23747818,128.5597968,117.437,2,8,0.5261,0.1727,0.6345,-0.2919,-0.3268,0.5737,12.58,1.3
2024-03-31 12:17:18.078,36.23746303,128.559803,115.3563,2,8,0.5261,0.1727,0.6345,-0.2919,-0.3268,0.5736,12.78,1.3
2024-03-31 12:17:18.117,36.23743953,128.5598119,112.2442,2,9,0.0584,0.0521,0.0859,0.03,-0.0572,0.02,12.98,1
2024-03-31 12:17:18.182,36.2374574,128.5598046,114.6817,2,8,0.526,0.1727,0.6344,-0.2918,-0.3268,0.5736,13.18,1.1
2024-03-31 12:17:18.219,36.23743924,128.5598114,112.287,2,9,0.0586,0.0521,0.0857,0.03,-0.0573,0.0206,13.38,2
2024-03-31 12:17:18.277,36.23745393,128.5598061,114.2025,2,8,0.526,0.1727,0.6343,-0.2918,-0.3267,0.5735,13.58,1.4
2024-03-31 12:17:18.320,36.2374392,128.5598114,112.2889,2,9,0.0586,0.0521,0.0855,0.0301,-0.0573,0.0212,13.78,1.1
2024-03-31 12:17:18.379,36.23746966,128.5597998,116.3214,2,8,0.5259,0.1726,0.6341,-0.2917,-0.3266,0.5735,13.98,1.1
2024-03-31 12:17:18.418,36.23743949,128.5598117,112.2546,2,9,0.0587,0.052,0.0853,0.03,-0.0573,0.022,14.18,1.7
2024-03-31 12:17:18.460,36.23743918,128.5598113,112.29,2,9,0.0588,0.052,0.0852,0.03,-0.0573,0.0224,14.38,1.4
2024-03-31 12:17:18.519,36.2374525,128.5598064,114.6108,1,8,0.0233,0.0188,0.0532,-0.0105,-0.0242,0.0126,14.58,3.1
2024-03-31 12:17:18.561,36.23743952,128.5598117,112.2588,2,9,0.0588,0.0518,0.0849,0.0298,-0.0572,0.0233,14.78,1.5
2024-03-31 12:17:18.598,36.23745279,128.5598061,114.1011,2,8,0.5258,0.1723,0.6337,-0.2916,-0.3263,0.5734,14.98,1.1
2024-03-31 12:17:18.659,36.2374397,128.5598121,112.2134,2,9,0.0588,0.0516,0.0846,0.0295,-0.057,0.0242,15.18,1.1
2024-03-31 12:17:18.700,36.23743952,128.5598118,112.2449,2,9,0.0588,0.0515,0.0844,0.0294,-0.0569,0.0248,15.38,2.6
2024-03-31 12:17:18.757,36.23748026,128.5597961,117.6682,2,8,0.5258,0.1721,0.6335,-0.2915,-0.3261,0.5733,15.58,1.4
2024-03-31 12:17:18.799,36.2374391,128.5598113,112.273,2,9,0.0588,0.0512,0.084,0.029,-0.0567,0.0258,15.78,1.1
2024-03-31 12:17:18.838,36.23743926,128.5598117,112.2306,2,9,0.0588,0.051,0.0839,0.0288,-0.0566,0.0264,15.98,1.2
2024-03-31 12:17:18.899,36.2374436,128.5598103,112.7649,2,8,0.5257,0.1718,0.6332,-0.2914,-0.3259,0.5732,16.18,1.2
2024-03-31 12:17:18.939,36.23746469,128.5598021,115.5725,2,8,0.5257,0.1717,0.6331,-0.2914,-0.3258,0.5732,16.38,1.3
2024-03-31 12:17:18.979,36.23743682,128.5598127,111.8974,2,8,0.5257,0.1716,0.633,-0.2914,-0.3257,0.5732,16.58,1.4
2024-03-31 12:17:19.039,36.23743854,128.5598121,112.1166,2,8,0.5256,0.1715,0.6328,-0.2913,-0.3256,0.5732,16.78,1.1
2024-03-31 12:17:19.077,36.23743931,128.5598116,112.2411,2,9,0.0587,0.0499,0.0827,0.0275,-0.0556,0.0291,16.98,1
2024-03-31 12:17:19.140,36.23748215,128.559795,117.9443,2,8,0.5256,0.1712,0.6326,-0.2913,-0.3253,0.5731,17.18,1.1
2024-03-31 12:17:19.179,36.23746823,128.5598008,116.0293,2,8,0.5256,0.1711,0.6325,-0.2913,-0.3252,0.5731,17.38,1.5
2024-03-31 12:17:19.218,36.23747514,128.5597984,116.918,2,8,0.5255,0.171,0.6324,-0.2912,-0.3251,0.5731,17.58,1
2024-03-31 12:17:19.278,36.23745851,128.5598041,114.7915,2,8,0.5255,0.1708,0.6322,-0.2912,-0.325,0.5731,17.78,1.1
2024-03-31 12:17:19.341,36.23743955,128.5598118,112.2231,2,9,0.0584,0.0485,0.0814,0.0256,-0.0544,0.032,17.98,1
2024-03-31 12:17:19.378,36.23744673,128.5598083,113.2765,2,8,0.5255,0.1705,0.632,-0.2912,-0.3247,0.573,18.18,1.1
2024-03-31 12:17:19.419,36.23743924,128.5598115,112.23,2,9,0.0582,0.0478,0.0808,0.0246,-0.0538,0.0333,18.38,1
2024-03-31 12:17:19.478,36.2374394,128.5598115,112.2378,2,9,0.0582,0.0475,0.0806,0.0241,-0.0535,0.0339,18.58,1.1
2024-03-31 12:17:19.520,36.23743959,128.559812,112.1851,2,9,0.0582,0.0471,0.0803,0.0236,-0.0533,0.0346,18.78,1.3
2024-03-31 12:17:19.579,36.23744957,128.5598078,113.5562,2,8,0.5254,0.1699,0.6315,-0.2911,-0.3242,0.573,18.98,1.1
2024-03-31 12:17:19.620,36.23748183,128.5597957,117.802,2,8,0.5254,0.1697,0.6313,-0.2911,-0.324,0.573,19.18,1
2024-03-31 12:17:19.679,36.23744689,128.5598082,113.288,2,8,0.5253,0.1695,0.6312,-0.2911,-0.3239,0.5729,19.38,1
2024-03-31 12:17:19.717,36.23744253,128.5598103,112.6493,2,8,0.5253,0.1694,0.631,-0.2911,-0.3238,0.5729,19.58,1
2024-03-31 12:17:19.757,36.23747841,128.5597964,117.4389,2,8,0.5253,0.1692,0.6309,-0.291,-0.3236,0.5729,19.78,1
2024-03-31 12:17:19.819,36.23744757,128.5598086,113.2798,2,9,0.0666,0.0457,0.0878,0.0084,-0.0548,0.0527,19.98,1
2024-03-31 12:17:19.858,36.23744723,128.5598084,113.2794,2,9,0.0664,0.0453,0.0874,0.0067,-0.0544,0.053,20.18,1.1
2024-03-31 12:17:19.898,36.23744647,128.5598087,113.1794,2,8,0.075,0.0683,0.1539,-0.0673,-0.1008,0.1017,20.38,1
2024-03-31 12:17:19.958,36.23744676,128.5598084,113.2455,2,9,0.0471,0.0416,0.0937,-0.0372,-0.0597,0.057,20.58,1.2
2024-03-31 12:17:19.999,36.23744664,128.5598086,113.1948,2,9,0.053,0.0465,0.1054,-0.0438,-0.0676,0.0668,20.78,1.2
2024-03-31 12:17:20.036,36.23744592,128.5598093,113.0525,2,9,0.0645,0.0565,0.1285,-0.0558,-0.0833,0.0848,20.98,1
2024-03-31 12:17:20.098,36.23744491,128.5598117,112.6964,2,9,0.0731,0.082,0.1631,-0.0721,-0.1138,0.1034,21.18,1.1
2024-03-31 12:17:20.141,36.23744717,128.559808,113.3242,2,8,0.0699,0.0639,0.1436,-0.0629,-0.0942,0.0948,21.38,1
2024-03-31 12:17:20.197,36.23744493,128.5598116,112.7098,2,9,0.0704,0.0792,0.1573,-0.0695,-0.1097,0.0995,21.58,1
2024-03-31 12:17:20.238,36.23744672,128.5598084,113.2246,2,8,0.0679,0.0621,0.1394,-0.0611,-0.0915,0.092,21.78,1
2024-03-31 12:17:20.277,36.23744747,128.5598076,113.4024,2,8,0.067,0.0612,0.1373,-0.0602,-0.0901,0.0906,21.98,1.1
2024-03-31 12:17:20.338,36.23744832,128.5598066,113.591,2,9,0.0652,0.0596,0.1334,-0.0585,-0.0876,0.0879,22.18,1.1
2024-03-31 12:17:20.397,36.23744801,128.5598071,113.4883,2,9,0.0642,0.0587,0.1313,-0.0576,-0.0862,0.0866,22.38,1
2024-03-31 12:17:20.438,36.23744673,128.5598085,113.1982,2,9,0.0632,0.0577,0.1292,-0.0567,-0.0849,0.0852,22.58,1.1
2024-03-31 12:17:20.479,36.2374471,128.5598082,113.2709,2,9,0.0623,0.0568,0.1271,-0.0558,-0.0835,0.0838,22.78,1.1
2024-03-31 12:17:20.517,36.23744717,128.5598081,113.2971,2,9,0.0613,0.0559,0.125,-0.0549,-0.0821,0.0825,22.98,1
2024-03-31 12:17:20.578,36.23744779,128.5598073,113.4513,2,8,0.061,0.0556,0.1242,-0.0547,-0.0817,0.0821,23.18,1.1
2024-03-31 12:17:20.619,36.23744444,128.559813,112.4849,2,9,0.0907,0.1133,0.2191,-0.0983,-0.1566,0.1374,23.38,1.1
2024-03-31 12:17:20.677,36.2374481,128.559807,113.5104,2,9,0.0585,0.0532,0.1186,-0.0523,-0.078,0.0783,23.58,1.1
2024-03-31 12:17:20.717,36.23744685,128.5598084,113.2323,2,9,0.0576,0.0522,0.1165,-0.0514,-0.0766,0.077,23.78,1
2024-03-31 12:17:20.758,36.23744772,128.5598074,113.4311,2,9,0.0567,0.0513,0.1144,-0.0505,-0.0752,0.0756,23.98,1
2024-03-31 12:17:20.818,36.2374476,128.5598076,113.3916,2,8,0.0563,0.0508,0.1133,-0.0501,-0.0745,0.075,24.18,1.1
2024-03-31 12:17:20.878,36.23744762,128.5598074,113.4075,2,4,0.022,0.0182,0.0407,-0.0076,-0.0231,0.0129,24.38,1.3
2024-03-31 12:17:20.917,36.23744758,128.5598074,113.4167,2,4,0.022,0.0181,0.0407,-0.0081,-0.0232,0.0135,24.58,1.3
2024-03-31 12:17:20.958,36.23744795,128.5598071,113.4856,2,8,0.0536,0.048,0.1068,-0.0474,-0.0703,0.0709,24.78,1.1
2024-03-31 12:17:20.996,36.23744768,128.5598075,113.4107,2,8,0.0527,0.0471,0.1047,-0.0466,-0.0689,0.0695,24.98,1.1
2024-03-31 12:17:21.058,36.23744766,128.5598075,113.4099,2,9,0.0218,0.0176,0.04,-0.009,-0.0229,0.0145,25.18,1
2024-03-31 12:17:21.120,36.23744767,128.5598074,113.4126,2,9,0.0218,0.0175,0.04,-0.0094,-0.0229,0.015,25.38,1.1
2024-03-31 12:17:21.157,36.23744746,128.5598077,113.3721,2,8,0.0501,0.0444,0.0985,-0.044,-0.0648,0.0656,25.58,1
2024-03-31 12:17:21.197,36.23744765,128.5598075,113.4116,2,8,0.0493,0.0435,0.0965,-0.0432,-0.0635,0.0643,25.78,1
2024-03-31 12:17:21.259,36.23744768,128.5598074,113.4175,2,9,0.0217,0.0173,0.0395,-0.0101,-0.0228,0.0159,25.98,1
2024-03-31 12:17:21.299,36.23744737,128.5598077,113.3576,2,8,0.0477,0.0418,0.0926,-0.0416,-0.0609,0.0618,26.18,1
2024-03-31 12:17:21.338,36.23744782,128.5598072,113.4625,2,8,0.0469,0.041,0.0907,-0.0408,-0.0597,0.0606,26.38,1
2024-03-31 12:17:21.398,36.23744767,128.5598074,113.4208,2,9,0.0216,0.0171,0.0392,-0.0108,-0.0227,0.0168,26.58,1
2024-03-31 12:17:21.438,36.2374477,128.5598073,113.4422,2,9,0.0218,0.0172,0.0395,-0.0114,-0.0231,0.0175,26.78,1
2024-03-31 12:17:21.477,36.23744758,128.5598074,113.4125,2,8,0.0448,0.0387,0.0854,-0.0386,-0.0562,0.0573,26.98,1
2024-03-31 12:17:21.539,36.23744771,128.5598073,113.4449,2,9,0.022,0.0174,0.0398,-0.0121,-0.0234,0.0185,27.18,1
2024-03-31 12:17:21.599,36.23744744,128.5598075,113.3935,2,8,0.0436,0.0373,0.0822,-0.0373,-0.0541,0.0553,27.38,1
2024-03-31 12:17:21.637,36.2374475,128.5598074,113.4206,2,8,0.043,0.0367,0.0808,-0.0367,-0.0532,0.0544,27.58,1
2024-03-31 12:17:21.677,36.23744773,128.5598072,113.4477,2,9,0.0224,0.0175,0.0401,-0.013,-0.0238,0.0197,27.78,1.1
2024-03-31 12:17:21.718,36.23744772,128.5598071,113.4616,2,9,0.023,0.0181,0.0412,-0.014,-0.0247,0.0211,27.98,1.1
2024-03-31 12:17:21.778,36.23744727,128.5598076,113.3691,2,8,0.0415,0.035,0.0769,-0.0352,-0.0506,0.052,28.18,1
2024-03-31 12:17:21.837,36.23744765,128.5598072,113.4517,2,8,0.0411,0.0345,0.0758,-0.0347,-0.0499,0.0513,28.38,1
2024-03-31 12:17:21.878,36.23744744,128.5598074,113.4066,2,8,0.0407,0.0341,0.0749,-0.0343,-0.0493,0.0507,28.58,1.1
2024-03-31 12:17:21.919,36.23744778,128.559807,113.4812,2,9,0.0238,0.0187,0.0424,-0.0154,-0.0258,0.0231,28.78,1
2024-03-31 12:17:21.957,36.23744733,128.5598075,113.3859,2,8,0.0401,0.0334,0.0733,-0.0337,-0.0482,0.0497,28.98,1
2024-03-31 12:17:22.021,36.23744753,128.5598073,113.4275,2,8,0.0399,0.0332,0.0727,-0.0335,-0.0478,0.0493,29.18,1
2024-03-31 12:17:22.061,36.23744795,128.5598069,113.5063,2,9,0.0252,0.02,0.0448,-0.0174,-0.0278,0.0258,29.38,1.1
2024-03-31 12:17:22.117,36.23744734,128.5598075,113.3994,2,8,0.0396,0.0328,0.0718,-0.0331,-0.0473,0.0488,29.58,1
2024-03-31 12:17:22.157,36.23744747,128.5598074,113.4189,2,8,0.0395,0.0327,0.0716,-0.033,-0.0471,0.0486,29.78,1.1
2024-03-31 12:17:22.220,36.23744817,128.5598066,113.5588,2,9,0.0277,0.0222,0.0494,-0.0203,-0.0312,0.0301,29.98,1.1
2024-03-31 12:17:22.257,36.23744995,128.5598096,113.5185,2,9,0.0472,0.0324,0.082,-0.0181,-0.0401,0.0318,0.18,1.1
2024-03-31 12:17:22.299,36.23745015,128.5598094,113.5428,2,9,0.0471,0.0315,0.0812,-0.0181,-0.0391,0.0318,0.38,1.3
2024-03-31 12:17:22.358,36.2374502,128.5598094,113.5493,2,9,0.047,0.0311,0.0808,-0.0181,-0.0387,0.0319,0.58,1.4
2024-03-31 12:17:22.401,36.23745081,128.5598087,113.7094,2,8,0.0781,0.0496,0.1277,-0.0516,-0.0728,0.0845,0.78,1.1
2024-03-31 12:17:22.458,36.23745085,128.5598086,113.7123,2,8,0.0778,0.0496,0.1275,-0.0515,-0.0728,0.0843,0.98,2.2
2024-03-31 12:17:22.499,36.23745151,128.5598083,113.8158,2,8,0.0775,0.0497,0.1275,-0.0515,-0.0729,0.0841,1.18,1.1
2024-03-31 12:17:22.559,36.23745036,128.5598093,113.5741,2,9,0.0465,0.0308,0.08,-0.0181,-0.0385,0.0317,1.38,1.2
2024-03-31 12:17:22.597,36.23745036,128.5598093,113.5877,2,9,0.0465,0.0307,0.0798,-0.0182,-0.0384,0.0318,1.58,1.2
2024-03-31 12:17:22.637,36.23745017,128.5598093,113.5688,2,9,0.0464,0.0306,0.0797,-0.0183,-0.0384,0.032,1.78,1.3
2024-03-31 12:17:22.700,36.23745035,128.5598092,113.5903,2,9,0.0464,0.0306,0.0796,-0.0185,-0.0384,0.0322,1.98,1
2024-03-31 12:17:22.738,36.23745041,128.5598093,113.574,2,9,0.0464,0.0306,0.0796,-0.0186,-0.0385,0.0324,2.18,2.3
2024-03-31 12:17:22.797,36.23745046,128.5598094,113.5711,2,9,0.0465,0.0306,0.0796,-0.0188,-0.0386,0.0327,2.38,1.2
2024-03-31 12:17:22.838,36.23745135,128.5598087,113.7245,2,8,0.075,0.0509,0.1274,-0.0515,-0.0742,0.0828,2.58,1.3
2024-03-31 12:17:22.898,36.23745167,128.5598086,113.7589,2,8,0.0749,0.0512,0.1279,-0.0517,-0.0747,0.083,2.78,1.2
2024-03-31 12:17:22.939,36.23745065,128.5598093,113.5931,2,9,0.0462,0.0306,0.0792,-0.0189,-0.0386,0.0327,2.98,1.7
2024-03-31 12:17:22.979,36.23745066,128.5598093,113.5984,2,9,0.0462,0.0306,0.0793,-0.0191,-0.0388,0.033,3.18,1
2024-03-31 12:17:23.039,36.23745045,128.5598092,113.5857,2,9,0.0463,0.0306,0.0793,-0.0193,-0.0389,0.0334,3.38,1.6
2024-03-31 12:17:23.077,36.23745087,128.5598091,113.6416,2,8,0.0744,0.0528,0.13,-0.0527,-0.0769,0.0838,3.58,1
2024-03-31 12:17:23.117,36.23745063,128.5598093,113.577,2,9,0.0462,0.0307,0.0793,-0.0195,-0.0391,0.0336,3.78,1.4
2024-03-31 12:17:23.179,36.23745072,128.5598093,113.6011,2,8,0.0744,0.0537,0.1315,-0.0534,-0.0783,0.0846,3.98,1.1
2024-03-31 12:17:23.217,36.23745059,128.5598093,113.5823,2,9,0.0461,0.0308,0.0792,-0.0197,-0.0393,0.0339,4.18,1.1
2024-03-31 12:17:23.277,36.23745063,128.5598094,113.5684,2,9,0.0462,0.0309,0.0794,-0.02,-0.0396,0.0343,4.38,1.3
2024-03-31 12:17:23.318,36.23745064,128.5598093,113.5843,2,9,0.0464,0.031,0.0796,-0.0203,-0.0398,0.0348,4.58,2
2024-03-31 12:17:23.379,36.23745044,128.5598093,113.5663,2,9,0.0465,0.0311,0.0798,-0.0206,-0.0401,0.0353,4.78,1.4
2024-03-31 12:17:23.418,36.23745049,128.5598094,113.5627,2,8,0.0746,0.0564,0.1358,-0.0555,-0.0822,0.087,4.98,1
2024-03-31 12:17:23.459,36.23745057,128.5598093,113.5651,2,9,0.0465,0.0312,0.0799,-0.0209,-0.0404,0.0358,5.18,1.2
2024-03-31 12:17:23.521,36.23745037,128.5598092,113.57,2,9,0.0467,0.0314,0.0802,-0.0213,-0.0408,0.0363,5.38,1.4
2024-03-31 12:17:23.558,36.23745097,128.5598091,113.6348,2,8,0.075,0.0582,0.139,-0.057,-0.0849,0.0889,5.58,1.3
2024-03-31 12:17:23.598,36.23745105,128.559809,113.6366,2,8,0.0753,0.0589,0.1402,-0.0576,-0.0859,0.0897,5.78,2
2024-03-31 12:17:23.659,36.23745046,128.5598092,113.574,2,9,0.0466,0.0316,0.0803,-0.0217,-0.0412,0.0368,5.98,1.5
2024-03-31 12:17:23.718,36.23745027,128.5598095,113.5156,2,8,0.0757,0.0601,0.1425,-0.0587,-0.0878,0.0912,6.18,1.1
2024-03-31 12:17:23.740,36.23745039,128.5598093,113.5494,2,9,0.0467,0.0318,0.0805,-0.0221,-0.0416,0.0374,6.38,1.2
2024-03-31 12:17:23.799,36.23745052,128.5598091,113.5797,2,9,0.047,0.032,0.081,-0.0226,-0.0421,0.0382,6.58,1.1
2024-03-31 12:17:23.857,36.23745031,128.5598091,113.5687,2,9,0.0474,0.0323,0.0815,-0.0232,-0.0426,0.0391,6.78,1.4
2024-03-31 12:17:23.898,36.23745064,128.5598091,113.5881,2,8,0.0767,0.0627,0.1473,-0.061,-0.0917,0.0942,6.98,1.1
2024-03-31 12:17:23.939,36.23745054,128.559809,113.5878,2,9,0.0476,0.0326,0.082,-0.0237,-0.0432,0.0399,7.18,1.1
2024-03-31 12:17:23.999,36.23745057,128.559809,113.5909,2,9,0.048,0.0329,0.0827,-0.0244,-0.0439,0.0409,7.38,1.1
2024-03-31 12:17:24.037,36.23745061,128.5598091,113.5672,2,9,0.0485,0.0333,0.0835,-0.0251,-0.0446,0.042,7.58,1.2
2024-03-31 12:17:24.099,36.23745003,128.5598096,113.4713,2,8,0.0778,0.0654,0.1523,-0.0633,-0.0956,0.0973,7.78,1.2
2024-03-31 12:17:24.140,36.23745058,128.5598091,113.5761,2,9,0.0489,0.0337,0.0843,-0.0259,-0.0454,0.0432,7.98,1.3
2024-03-31 12:17:24.178,36.23745059,128.5598089,113.5907,2,9,0.0496,0.0341,0.0854,-0.0268,-0.0463,0.0446,8.18,1.1
2024-03-31 12:17:24.238,36.23744998,128.5598095,113.4668,2,8,0.0787,0.0673,0.156,-0.0651,-0.0985,0.0997,8.38,1
2024-03-31 12:17:24.278,36.23745052,128.559809,113.5902,2,9,0.0501,0.0347,0.0865,-0.0278,-0.0473,0.046,8.58,1
2024-03-31 12:17:24.320,36.23745055,128.559809,113.5756,2,9,0.051,0.0353,0.0879,-0.0289,-0.0484,0.0477,8.78,1
2024-03-31 12:17:24.379,36.23745059,128.5598089,113.6012,2,9,0.052,0.036,0.0896,-0.0302,-0.0497,0.0496,8.98,1
2024-03-31 12:17:24.421,36.23745112,128.5598083,113.7325,2,8,0.0799,0.0697,0.1607,-0.0673,-0.1022,0.1028,9.18,1.1
2024-03-31 12:17:24.480,36.23745063,128.5598088,113.6087,2,9,0.0789,0.0692,0.1592,-0.0665,-0.1013,0.1015,9.38,1.2
2024-03-31 12:17:24.520,36.23744952,128.5598099,113.3677,2,9,0.0791,0.0697,0.1602,-0.067,-0.1021,0.1022,9.58,1.1
2024-03-31 12:17:24.580,36.23744991,128.5598095,113.4592,2,9,0.0411,0.0354,0.0809,-0.0212,-0.0461,0.0334,9.78,1.1
2024-03-31 12:17:24.620,36.23744976,128.5598094,113.4631,2,9,0.041,0.0345,0.0795,-0.0206,-0.0449,0.0329,9.98,1.3
2024-03-31 12:17:24.659,36.2374497,128.5598093,113.4628,2,9,0.041,0.034,0.0787,-0.0204,-0.0442,0.0327,10.18,1.1
2024-03-31 12:17:24.718,36.23744981,128.5598094,113.447,2,9,0.0411,0.0337,0.0782,-0.0204,-0.0438,0.0329,10.38,1.5
2024-03-31 12:17:24.758,36.23744969,128.5598094,113.4428,2,9,0.0412,0.0335,0.078,-0.0205,-0.0437,0.0332,10.58,1.3
2024-03-31 12:17:24.821,36.23744975,128.5598093,113.4688,2,9,0.0413,0.0334,0.078,-0.0208,-0.0437,0.0337,10.78,1.2
2024-03-31 12:17:24.859,36.23744976,128.5598093,113.4506,2,9,0.0416,0.0335,0.0782,-0.0212,-0.0439,0.0343,10.98,1.3
2024-03-31 12:17:24.900,36.23745079,128.559808,113.7246,2,8,0.0825,0.0748,0.1707,-0.0721,-0.1099,0.1094,11.18,1.1
2024-03-31 12:17:24.960,36.23744942,128.5598095,113.4114,2,8,0.0827,0.0753,0.1715,-0.0725,-0.1106,0.11,11.38,1.2
2024-03-31 12:17:24.997,36.23744975,128.5598091,113.4845,2,9,0.0416,0.0336,0.0782,-0.0217,-0.0442,0.0351,11.58,1.3
2024-03-31 12:17:25.060,36.23744956,128.5598091,113.4718,2,9,0.0419,0.0337,0.0787,-0.0223,-0.0446,0.036,11.78,1.3
2024-03-31 12:17:25.100,36.23745065,128.5598079,113.7198,2,8,0.0832,0.0764,0.1737,-0.0735,-0.1122,0.1114,11.98,1
2024-03-31 12:17:25.160,36.2374497,128.559809,113.4821,2,9,0.0422,0.034,0.0793,-0.0231,-0.0452,0.0371,12.18,1.1
2024-03-31 12:17:25.198,36.23744953,128.5598089,113.489,2,9,0.0427,0.0344,0.0801,-0.0239,-0.0459,0.0384,12.38,1.6
2024-03-31 12:17:25.259,36.23744959,128.5598089,113.4929,2,9,0.0433,0.0348,0.0812,-0.0249,-0.0468,0.0398,12.58,1.5
2024-03-31 12:17:25.303,36.23744959,128.5598089,113.4763,2,9,0.044,0.0353,0.0824,-0.0259,-0.0478,0.0414,12.78,1.2
2024-03-31 12:17:25.339,36.23744908,128.5598093,113.3828,2,8,0.0837,0.0777,0.1762,-0.0748,-0.1143,0.1132,12.98,1.3
2024-03-31 12:17:25.399,36.23744935,128.5598088,113.4776,2,9,0.0447,0.036,0.0839,-0.0272,-0.049,0.0433,13.18,1.1
2024-03-31 12:17:25.440,36.23744945,128.5598088,113.4844,2,9,0.0457,0.0368,0.0858,-0.0287,-0.0505,0.0455,13.38,1.1
2024-03-31 12:17:25.477,36.2374494,128.5598089,113.4575,2,9,0.0469,0.0378,0.0882,-0.0304,-0.0523,0.048,13.58,1.1
2024-03-31 12:17:25.539,36.23745046,128.5598075,113.7407,2,8,0.0838,0.0783,0.1772,-0.0754,-0.1152,0.1139,13.78,1.1
2024-03-31 12:17:25.581,36.23744954,128.5598083,113.5604,2,8,0.0837,0.0784,0.1773,-0.0755,-0.1154,0.1141,13.98,1
2024-03-31 12:17:25.638,36.23744945,128.5598086,113.5135,2,9,0.0482,0.0391,0.091,-0.0325,-0.0546,0.0511,14.18,1.1
2024-03-31 12:17:25.678,36.23744883,128.5598092,113.3817,2,8,0.0836,0.0785,0.1773,-0.0756,-0.1155,0.1141,14.38,1.1
2024-03-31 12:17:25.719,36.23744966,128.5598082,113.5711,2,8,0.0835,0.0785,0.1772,-0.0756,-0.1155,0.1141,14.58,1.1
2024-03-31 12:17:25.779,36.23744964,128.5598082,113.5664,2,8,0.0834,0.0784,0.1771,-0.0756,-0.1155,0.1141,14.78,1
2024-03-31 12:17:25.819,36.23744942,128.5598082,113.5624,2,8,0.0832,0.0784,0.1769,-0.0755,-0.1154,0.114,14.98,1.1
2024-03-31 12:17:25.880,36.2374497,128.559808,113.5968,2,8,0.083,0.0783,0.1766,-0.0754,-0.1153,0.1138,15.18,1.2
2024-03-31 12:17:25.920,36.23744943,128.559808,113.581,2,8,0.0828,0.0781,0.1763,-0.0753,-0.1151,0.1136,15.38,1
2024-03-31 12:17:25.980,36.23744891,128.5598088,113.4161,2,9,0.0664,0.0626,0.1409,-0.0581,-0.0911,0.0877,15.58,1.2
2024-03-31 12:17:26.021,36.23744864,128.5598088,113.4013,2,9,0.0703,0.0653,0.1476,-0.0618,-0.0956,0.0935,15.78,1.2
2024-03-31 12:17:26.061,36.23744923,128.559808,113.5632,2,8,0.082,0.0776,0.1749,-0.0748,-0.1143,0.1128,15.98,1.2
2024-03-31 12:17:26.119,36.23744946,128.5598079,113.5881,2,8,0.0817,0.0774,0.1743,-0.0746,-0.114,0.1125,16.18,1.1
2024-03-31 12:17:26.160,36.23744864,128.5598086,113.4186,2,8,0.0814,0.0771,0.1737,-0.0744,-0.1136,0.1121,16.38,1.1
2024-03-31 12:17:26.201,36.2374485,128.5598087,113.3917,2,8,0.0811,0.0768,0.173,-0.0741,-0.1132,0.1117,16.58,1.2
2024-03-31 12:17:26.258,36.23744846,128.5598087,113.3884,2,8,0.0807,0.0765,0.1722,-0.0738,-0.1127,0.1112,16.78,1
2024-03-31 12:17:26.318,36.23744795,128.5598092,113.2867,2,9,0.0262,0.0234,0.0511,0.0101,-0.0271,-0.0128,16.98,1.1
2024-03-31 12:17:26.358,36.2374497,128.5598071,113.7081,2,8,0.0798,0.0758,0.1705,-0.0731,-0.1116,0.1101,17.18,1.1
2024-03-31 12:17:26.400,36.23744797,128.5598092,113.2771,2,9,0.0258,0.023,0.0502,0.0099,-0.0266,-0.0125,17.38,1.1
2024-03-31 12:17:26.459,36.23744966,128.559807,113.7027,2,8,0.0789,0.0749,0.1685,-0.0723,-0.1104,0.1089,17.58,1
2024-03-31 12:17:26.500,36.23744788,128.5598091,113.2835,2,9,0.0255,0.0225,0.0494,0.0097,-0.0261,-0.0121,17.78,1.2
2024-03-31 12:17:26.540,36.23744832,128.5598084,113.4039,2,8,0.0779,0.074,0.1663,-0.0714,-0.109,0.1075,17.98,1.2
2024-03-31 12:17:26.598,36.23744885,128.5598076,113.5643,2,7,0.0778,0.0738,0.1658,-0.0713,-0.1087,0.1074,18.18,1
2024-03-31 12:17:26.638,36.23744775,128.5598088,113.3047,2,9,0.025,0.0219,0.0482,0.0093,-0.0255,-0.0114,18.38,1.4
2024-03-31 12:17:26.679,36.23744776,128.5598088,113.2916,2,9,0.0249,0.0217,0.0477,0.0091,-0.0252,-0.0112,18.58,1
2024-03-31 12:17:26.741,36.23744774,128.5598088,113.2936,2,8,0.0247,0.0215,0.0473,0.009,-0.025,-0.011,18.78,1
2024-03-31 12:17:26.779,36.23744769,128.5598088,113.2943,2,8,0.0245,0.0213,0.0469,0.0089,-0.0248,-0.0107,18.98,1
2024-03-31 12:17:26.839,36.23744875,128.5598074,113.5748,2,7,0.0747,0.0708,0.159,-0.0685,-0.1043,0.1031,19.18,1.3
2024-03-31 12:17:26.880,36.23744915,128.5598069,113.6653,2,8,0.0737,0.0699,0.1568,-0.0676,-0.1029,0.1016,19.38,1.1
2024-03-31 12:17:26.939,36.23744769,128.5598086,113.3079,2,9,0.024,0.0207,0.0457,0.0083,-0.0242,-0.0098,19.58,1
2024-03-31 12:17:26.984,36.23744768,128.5598086,113.3066,2,9,0.0239,0.0205,0.0453,0.0081,-0.024,-0.0095,19.78,1.2
2024-03-31 12:17:27.021,36.23744864,128.5598075,113.5415,2,8,0.0716,0.0678,0.1521,-0.0656,-0.0998,0.0986,19.98,1
2024-03-31 12:17:27.078,36.23744794,128.5598081,113.3977,2,8,0.0709,0.0671,0.1504,-0.0649,-0.0987,0.0976,20.18,1.1
2024-03-31 12:17:27.120,36.2374485,128.5598073,113.5485,2,8,0.0701,0.0663,0.1487,-0.0642,-0.0976,0.0965,20.38,1.1
2024-03-31 12:17:27.180,36.23744755,128.5598084,113.3174,2,9,0.0232,0.0198,0.0439,0.0072,-0.0234,-0.008,20.58,1.1
2024-03-31 12:17:27.220,36.23744757,128.5598084,113.3264,2,9,0.0231,0.0196,0.0435,0.007,-0.0232,-0.0076,20.78,1.4
2024-03-31 12:17:27.279,36.23744749,128.5598084,113.3223,2,9,0.0229,0.0194,0.0432,0.0067,-0.023,-0.0071,20.98,1.2
2024-03-31 12:17:27.320,36.23744743,128.5598083,113.33,2,9,0.0228,0.0192,0.0428,0.0064,-0.0229,-0.0066,21.18,1
2024-03-31 12:17:27.359,36.23744786,128.5598078,113.4325,2,8,0.0662,0.0623,0.1395,-0.0604,-0.0916,0.0907,21.38,1.2
2024-03-31 12:17:27.421,36.23744873,128.5598068,113.6339,2,8,0.0653,0.0615,0.1375,-0.0596,-0.0904,0.0895,21.58,1.1
2024-03-31 12:17:27.460,36.2374483,128.5598073,113.5317,2,8,0.0645,0.0606,0.1356,-0.0588,-0.0891,0.0882,21.78,1.1
